{
  "20220101": {"name": "纽约长岛中心点", "lat": 40.7891, "lng": -73.1350},
  "20220102": {"name": "布拉格，捷克中心点", "lat": 50.0755, "lng": 14.4378},
  "20220103": {"name": "利克天文台，加州", "lat": 37.3414, "lng": -121.6428},
  "20220104": {"name": "安沙波利哥沙漠中心", "lat": 33.1006, "lng": -116.3014},
  "20220105": {"name": "厄瓜多尔中心(巨嘴鸟)", "lat": -1.8312, "lng": -78.1834},
  "20220106": {"name": "科赫尔湖，巴伐利亚", "lat": 47.6417, "lng": 11.3500},
  "20220107": {"name": "纳扎雷灯塔，葡萄牙", "lat": 39.6014, "lng": -9.0833},
  "20220108": {"name": "黄石国家公园中心", "lat": 44.4280, "lng": -110.5885},
  "20220109": {"name": "大米晒场(代表中心：达卡)", "lat": 23.8103, "lng": 90.4125},
  "20220110": {"name": "巴德加斯坦，奥地利", "lat": 47.1153, "lng": 13.1344},
  "20220111": {"name": "阿拉斯加中心点(豪猪)", "lat": 64.2008, "lng": -149.4937},
  "20220112": {"name": "梵净山，中国", "lat": 27.9167, "lng": 108.7000},
  "20220113": {"name": "塔西拉克，格陵兰", "lat": 65.6111, "lng": -37.6361},
  "20220114": {"name": "萨卡洛布拉湾，马约卡岛", "lat": 39.8519, "lng": 2.8186},
  "20220115": {"name": "苏阿海沟，萨摩亚", "lat": -14.0333, "lng": -171.7167},
  "20220116": {"name": "博格拉县，孟加拉", "lat": 24.8483, "lng": 89.3719},
  "20220117": {"name": "莱达尔湖, 英国", "lat": 54.4467, "lng": -2.9903},
  "20220118": {"name": "博格豪森镇, 德国", "lat": 48.1500, "lng": 12.8333},
  "20220119": {"name": "克卢恩国家公园，加拿大", "lat": 60.7500, "lng": -137.5000},
  "20220120": {"name": "南极半岛中心(阿德利企鹅)", "lat": -64.8333, "lng": -63.0000},
  "20220121": {"name": "南非中心点(幼狮区)", "lat": -30.5595, "lng": 22.9375},
  "20220122": {"name": "马提尼克岛，加勒比海", "lat": 14.6415, "lng": -61.0242},
  "20220123": {"name": "二见浦夫妇岩，日本", "lat": 34.5094, "lng": 136.7889},
  "20220124": {"name": "曼哈顿下城，纽约", "lat": 40.7128, "lng": -74.0060},
  "20220125": {"name": "安格尔西岛，英国", "lat": 53.2925, "lng": -4.3825},
  "20220126": {"name": "梅兰加尔堡，印度", "lat": 26.2978, "lng": 73.0185},
  "20220127": {"name": "珀斯，澳大利亚中心", "lat": -31.9505, "lng": 115.8605},
  "20220128": {"name": "林肯郡，英国中心点", "lat": 53.2344, "lng": -0.5220},
  "20220129": {"name": "开曼群岛中心点(加勒比海)", "lat": 19.3133, "lng": -81.2546},
  "20220130": {"name": "厄尔士山脉，德国", "lat": 50.5000, "lng": 12.5000},
  "20220131": {"name": "中国中心点(除夕夜)", "lat": 35.8617, "lng": 104.1954},
  "20220201": {"name": "中国中心点(春节灯笼)", "lat": 35.8617, "lng": 104.1954},
  "20220202": {"name": "陶恩山国家公园，奥地利", "lat": 47.1000, "lng": 12.6667},
  "20220203": {"name": "Corjuem堡垒，印度", "lat": 15.5975, "lng": 73.9406},
  "20220204": {"name": "北京中心点(冬奥)", "lat": 39.9042, "lng": 116.4074},
  "20220205": {"name": "黑脉金斑蝶栖息地(代表：墨西哥)", "lat": 19.6000, "lng": -100.3000},
  "20220206": {"name": "奥伊米亚康，俄罗斯", "lat": 63.4641, "lng": 142.7737},
  "20220207": {"name": "渥太华，加拿大中心", "lat": 45.4215, "lng": -75.6972},
  "20220208": {"name": "Speloncato市，科西嘉岛", "lat": 42.5622, "lng": 8.9814},
  "20220209": {"name": "七姐妹悬崖，英国", "lat": 50.7500, "lng": 0.1500},
  "20220210": {"name": "伯尔尼古城，瑞士", "lat": 46.9479, "lng": 7.4474},
  "20220211": {"name": "慕那尔中心，印度", "lat": 10.0889, "lng": 77.0595},
  "20220212": {"name": "达尔文岛中心点", "lat": 1.6700, "lng": -92.0000},
  "20220213": {"name": "黄石公园野牛区", "lat": 44.4280, "lng": -110.5885},
  "20220214": {"name": "马尔代夫中心(心形岛)", "lat": 3.2028, "lng": 73.2207},
  "20220215": {"name": "成都锦里(灯笼)", "lat": 30.6478, "lng": 104.0486},
  "20220216": {"name": "多塞特郡中心，英国", "lat": 50.7167, "lng": -2.4333},
  "20220217": {"name": "里士满公园中心点", "lat": 51.4428, "lng": -0.2747},
  "20220218": {"name": "法国中心点(大山雀栖息地)", "lat": 46.2276, "lng": 2.2137},
  "20220219": {"name": "贝希特斯加登中心点", "lat": 47.6333, "lng": 13.0000},
  "20220220": {"name": "夏威夷中心点(座头鲸海域)", "lat": 21.3069, "lng": -157.8583},
  "20220221": {"name": "诺森伯兰郡中心点", "lat": 55.2500, "lng": -2.0000},
  "20220222": {"name": "双峰骆驼栖息地(代表：蒙古中心)", "lat": 46.8625, "lng": 103.8467},
  "20220223": {"name": "雷斯岬国家海岸隧道", "lat": 38.0375, "lng": -122.9911},
  "20220224": {"name": "瓦特纳冰原洞穴", "lat": 64.2500, "lng": -16.5000},
  "20220225": {"name": "怀特霍斯中心点，育空", "lat": 60.7211, "lng": -135.0567},
  "20220226": {"name": "冰川湾国家公园中心", "lat": 58.5000, "lng": -137.0000},
  "20220227": {"name": "丘吉尔，曼尼托巴", "lat": 58.7684, "lng": -94.1650},
  "20220228": {"name": "科茨沃尔德中心点，英国", "lat": 51.8333, "lng": -1.9167},
  "20220301": {"name": "楚格峰，格赖瑙市", "lat": 47.4211, "lng": 10.9847},
  "20220302": {"name": "雷尼尔山中心点", "lat": 46.8523, "lng": -121.7603},
  "20220303": {"name": "加济兰加国家公园", "lat": 26.6664, "lng": 93.3514},
  "20220304": {"name": "纽伦堡，德国中心点", "lat": 49.4521, "lng": 11.0767},
  "20220305": {"name": "圣米歇尔山", "lat": 48.6361, "lng": -1.5114},
  "20220306": {"name": "黑森州中心点(鸬鹚分布区)", "lat": 50.6667, "lng": 9.0000},
  "20220307": {"name": "库克山国家公园中心", "lat": -43.5950, "lng": 170.1417},
  "20220308": {"name": "阿尔卑斯省，法国中心", "lat": 44.0000, "lng": 7.0000},
  "20220309": {"name": "纳加尔霍雷国家公园中心点", "lat": 12.0300, "lng": 76.1500},
  "20220310": {"name": "博比奥，意大利中心", "lat": 44.7667, "lng": 9.3833},
  "20220311": {"name": "奥卡拉国家森林中心", "lat": 29.1764, "lng": -81.7644},
  "20220312": {"name": "布雷阿岛，法国", "lat": 48.8475, "lng": -3.0033},
  "20220313": {"name": "欧洲野兔栖息地(代表：荷兰中心)", "lat": 52.1326, "lng": 5.2913},
  "20220314": {"name": "兰洋夸特墓室", "lat": 50.1472, "lng": -5.5947},
  "20220315": {"name": "古罗马广场", "lat": 41.8925, "lng": 12.4847},
  "20220316": {"name": "卧龙国家级自然保护区", "lat": 31.0500, "lng": 103.1667},
  "20220317": {"name": "大草原溪红杉州立公园", "lat": 41.4014, "lng": -124.0300},
  "20220318": {"name": "洒红节代表地(斋浦尔)", "lat": 26.9124, "lng": 75.7873},
  "20220319": {"name": "芝加哥中心点", "lat": 41.8781, "lng": -87.6298},
  "20220320": {"name": "爪哇树蛙中心点(代表：茂物)", "lat": -6.5971, "lng": 106.8061},
  "20220321": {"name": "埃文河畔斯特拉特福", "lat": 52.1917, "lng": -1.7083},
  "20220322": {"name": "千泉州立公园", "lat": 42.7561, "lng": -114.8697},
  "20220323": {"name": "大峡谷国家公园中心", "lat": 36.1070, "lng": -112.1130},
  "20220324": {"name": "苏格兰高地红松鼠栖息地", "lat": 57.0000, "lng": -4.0000},
  "20220325": {"name": "劳特布龙嫩山谷", "lat": 46.5966, "lng": 7.9078},
  "20220326": {"name": "大山雀中心区(代表：英国牛津)", "lat": 51.7520, "lng": -1.2577},
  "20220327": {"name": "陶尔米纳古剧院", "lat": 37.8525, "lng": 15.2878},
  "20220328": {"name": "河内藤园，北九州", "lat": 33.8317, "lng": 130.7911},
  "20220329": {"name": "布里塔卡中心，哥伦比亚", "lat": 11.2333, "lng": -73.7667},
  "20220330": {"name": "腰带盖洛韦牛(代表：盖洛韦中心)", "lat": 55.0000, "lng": -4.0000},
  "20220331": {"name": "埃菲尔铁塔", "lat": 48.8584, "lng": 2.2945},
  "20220401": {"name": "哈瓦泰姬陵，斋浦尔", "lat": 26.9239, "lng": 75.8267},
  "20220402": {"name": "旺阿雷瀑布，新西兰", "lat": -35.6833, "lng": 174.3333},
  "20220403": {"name": "太湖中心点，无锡", "lat": 31.4244, "lng": 120.1264},
  "20220404": {"name": "谢拉格伯顿石，挪威", "lat": 59.0336, "lng": 6.5894},
  "20220405": {"name": "众神瀑布，冰岛", "lat": 65.6828, "lng": -17.5503},
  "20220406": {"name": "凤头卡拉鹰(德州南部中心)", "lat": 27.5000, "lng": -98.5000},
  "20220407": {"name": "马拉加老城，西班牙", "lat": 36.7213, "lng": -4.4214},
  "20220408": {"name": "蓬塔德尔加达，葡萄牙中心", "lat": 37.7411, "lng": -25.6756},
  "20220409": {"name": "滑板公园，阿瓦达市", "lat": 39.8028, "lng": -105.0875},
  "20220410": {"name": "狞猫代表性栖息地(南非)", "lat": -30.5595, "lng": 22.9375},
  "20220411": {"name": "蕨菜中心点(代表：舍布鲁克, 魁北克)", "lat": 45.4042, "lng": -71.8929},
  "20220412": {"name": "空间站拍摄地球上方月球中心点", "lat": 0.0000, "lng": 0.0000},
  "20220413": {"name": "结香花中心(代表：日本奈良)", "lat": 34.6850, "lng": 135.8050},
  "20220414": {"name": "马蹄湾，亚利桑那州", "lat": 36.8791, "lng": -111.5103},
  "20220415": {"name": "德文郡中心，英国", "lat": 50.7500, "lng": -3.7500},
  "20220416": {"name": "大棱镜泉，黄石", "lat": 44.5250, "lng": -110.8381},
  "20220417": {"name": "新泽西州中心点(知更鸟蛋)", "lat": 40.0583, "lng": -74.4057},
  "20220418": {"name": "梅萨维德国家公园", "lat": 37.2309, "lng": -108.4618},
  "20220419": {"name": "十六湖国家公园中心", "lat": 44.8654, "lng": 15.5820},
  "20220420": {"name": "疣鼻天鹅区，纽约长岛", "lat": 40.7891, "lng": -73.1350},
  "20220421": {"name": "冰岛中心点(初夏节)", "lat": 64.9631, "lng": -19.0208},
  "20220422": {"name": "卡鲁拉国家公园中心", "lat": 57.7083, "lng": 26.4917},
  "20220423": {"name": "维多利亚纪念堂，加尔各答", "lat": 22.5448, "lng": 88.3425},
  "20220424": {"name": "半穹顶中心点，优胜美地", "lat": 37.7459, "lng": -119.5332},
  "20220425": {"name": "圣安德鲁斯湾，南乔治亚岛", "lat": -54.4333, "lng": -36.1667},
  "20220426": {"name": "胡内城堡，下莱茵省", "lat": 48.9167, "lng": 7.3167},
  "20220427": {"name": "午夜太阳(代表：朗伊尔城)", "lat": 78.2232, "lng": 15.6267},
  "20220428": {"name": "大脊山, 峰区公园", "lat": 53.3500, "lng": -1.8333},
  "20220429": {"name": "加利福尼亚州中心点(巨杉区)", "lat": 36.7783, "lng": -119.4179},
  "20220430": {"name": "戴胜鸟中心点(代表：德国莱茵兰)", "lat": 50.0000, "lng": 8.0000},
  "20220501": {"name": "范度森植物园", "lat": 49.2392, "lng": -123.1300},
  "20220502": {"name": "棉花堡，土耳其", "lat": 37.9236, "lng": 29.1203},
  "20220503": {"name": "鸳鸯中心点(代表：首尔)", "lat": 37.5665, "lng": 126.9780},
  "20220504": {"name": "麦肯齐海滩，托菲诺", "lat": 49.1233, "lng": -125.8856},
  "20220505": {"name": "哈利斯科州龙舌兰区中心", "lat": 20.6667, "lng": -103.8333},
  "20220506": {"name": "赫特福德郡中心，英国", "lat": 51.8000, "lng": -0.2000},
  "20220507": {"name": "拉西拉天文台", "lat": -29.2584, "lng": -70.7345},
  "20220508": {"name": "昆士兰中心点(考拉栖息地)", "lat": -20.9176, "lng": 142.7028},
  "20220509": {"name": "格雷梅国家公园中心点", "lat": 38.6431, "lng": 34.8289},
  "20220510": {"name": "豹溪瀑布, 吉福德公园", "lat": 45.9389, "lng": -121.9547},
  "20220511": {"name": "伊亚镇，圣托里尼", "lat": 36.4618, "lng": 25.3753},
  "20220512": {"name": "布拉塞河，湖区中心点", "lat": 54.4333, "lng": -3.0000},
  "20220513": {"name": "马赛马拉长颈鹿区", "lat": -1.4833, "lng": 35.1167},
  "20220514": {"name": "金德代克风车群", "lat": 51.8883, "lng": 4.6364},
  "20220515": {"name": "贝尔尼纳山脉中心点", "lat": 46.4108, "lng": 10.0211},
  "20220516": {"name": "小穴鸮栖息地(科罗拉多中心)", "lat": 39.0000, "lng": -105.5000},
  "20220517": {"name": "马拉斯盐田，秘鲁", "lat": -13.3039, "lng": -72.1583},
  "20220518": {"name": "格吕克斯堡城堡", "lat": 54.8333, "lng": 9.5333},
  "20220519": {"name": "张家界大峡谷玻璃桥中心", "lat": 29.3958, "lng": 110.6625},
  "20220520": {"name": "波兰塔特拉山中心点", "lat": 49.2167, "lng": 20.0000},
  "20220521": {"name": "阿尔比恩瀑布，汉密尔顿", "lat": 43.2003, "lng": -79.8197},
  "20220522": {"name": "利特弗雷保护区中心", "lat": -25.8817, "lng": 28.2728},
  "20220523": {"name": "彩虹泉州立公园", "lat": 29.1025, "lng": -82.4372},
  "20220524": {"name": "科纳提国家公园中心", "lat": 43.8000, "lng": 15.3000},
  "20220525": {"name": "阿尔罕布拉宫，格拉纳达", "lat": 37.1761, "lng": -3.5881},
  "20220526": {"name": "蒙特维德云雾森林中心点", "lat": 10.3167, "lng": -84.8167},
  "20220527": {"name": "马林岬角中心点", "lat": 37.8300, "lng": -122.5000},
  "20220528": {"name": "波奴鲁鲁国家公园中心", "lat": -17.4667, "lng": 128.3333},
  "20220529": {"name": "加勒廷国家森林中心", "lat": 45.4500, "lng": -111.0833},
  "20220530": {"name": "阿萨巴斯卡瀑布中心点", "lat": 52.6653, "lng": -117.8833},
  "20220531": {"name": "金刚鹦鹉区(代表：哥斯达黎加)", "lat": 9.7489, "lng": -83.7534},
  "20220601": {"name": "马罗沃泻湖，所罗门群岛", "lat": -8.5000, "lng": 158.0000},
  "20220602": {"name": "莱西瀑布，福森", "lat": 47.5583, "lng": 10.6933},
  "20220603": {"name": "厦门龙舟池", "lat": 24.5756, "lng": 118.0975},
  "20220604": {"name": "安塞尔·亚当斯荒野区", "lat": 37.7500, "lng": -119.2500},
  "20220605": {"name": "萨勒克国家公园中心点", "lat": 67.3333, "lng": 17.6667},
  "20220606": {"name": "奥杜邦中心，宾夕法尼亚", "lat": 40.1264, "lng": -75.4389},
  "20220607": {"name": "哈加杜鹃花公园", "lat": 60.2222, "lng": 24.8944},
  "20220608": {"name": "真海豚中心区(代表：南非开普省)", "lat": -33.0000, "lng": 27.0000},
  "20220609": {"name": "甜心修道院，英国", "lat": 54.9811, "lng": -3.6111},
  "20220610": {"name": "滕波尔国家公园中心", "lat": 26.0172, "lng": 76.5025},
  "20220611": {"name": "米苏尔岛中心点", "lat": -1.8833, "lng": 130.1333},
  "20220612": {"name": "大弯曲国家公园塞拉庞塞", "lat": 29.1333, "lng": -103.4833},
  "20220613": {"name": "奥卡万戈河中心点", "lat": -18.7333, "lng": 22.2167},
  "20220614": {"name": "大都会艺术博物馆", "lat": 40.7794, "lng": -73.9632},
  "20220615": {"name": "大雾山国家公园中心点", "lat": 35.6118, "lng": -83.4895},
  "20220616": {"name": "仙岩寺升仙桥", "lat": 34.9917, "lng": 127.3236},
  "20220617": {"name": "箭叶脂根菊(大提顿公园)", "lat": 43.7410, "lng": -110.8024},
  "20220618": {"name": "黄金海岸冲浪中心点", "lat": -28.0167, "lng": 153.4000},
  "20220619": {"name": "双垂鹤鸵中心区(昆士兰州北部)", "lat": -16.0000, "lng": 145.0000},
  "20220620": {"name": "金凤蝶分布区(代表：意大利北部)", "lat": 45.0000, "lng": 10.0000},
  "20220621": {"name": "格拉斯顿伯里山丘", "lat": 51.1444, "lng": -2.6989},
  "20220622": {"name": "亚苏尼国家公园中心点", "lat": -0.8333, "lng": -76.5000},
  "20220623": {"name": "莫斯塔尔古桥", "lat": 43.3372, "lng": 17.8150},
  "20220624": {"name": "文图拉斯港水下天然井", "lat": 20.5000, "lng": -87.2167},
  "20220625": {"name": "卡特迈国家公园中心", "lat": 58.5000, "lng": -155.0000},
  "20220626": {"name": "考拉中心区(新南威尔士中心点)", "lat": -31.2532, "lng": 146.9211},
  "20220627": {"name": "瓦朗索勒高原中心", "lat": 43.8372, "lng": 5.9839},
  "20220628": {"name": "塔菲拉勒区中心点", "lat": 31.4167, "lng": -4.0000},
  "20220629": {"name": "攀牙湾中心点", "lat": 8.2833, "lng": 98.5333},
  "20220630": {"name": "基伯龙半岛中心点", "lat": 47.6167, "lng": -3.1167},
  "20220701": {"name": "阿圭罗村庄，西班牙", "lat": 42.3558, "lng": -0.7964},
  "20220702": {"name": "苏格兰高地中心点", "lat": 57.0000, "lng": -4.5000},
  "20220703": {"name": "赤狐代表性观测地(以色列)", "lat": 31.0461, "lng": 34.8516},
  "20220704": {"name": "沙拉瓦蒂桥中心点", "lat": 14.3000, "lng": 74.8333},
  "20220705": {"name": "芬尼特岛中心点", "lat": 38.9514, "lng": -120.0911},
  "20220706": {"name": "设得兰群岛中心点", "lat": 60.3000, "lng": -1.3000},
  "20220707": {"name": "哈萨塔角灯塔", "lat": 44.1372, "lng": -124.1278},
  "20220708": {"name": "普雷维利峡谷中心", "lat": 35.1528, "lng": 24.4739},
  "20220709": {"name": "多洛米蒂中心点", "lat": 46.4333, "lng": 11.8500},
  "20220710": {"name": "欧鲁旦尼斯中心", "lat": 36.5483, "lng": 29.1239},
  "20220711": {"name": "巴塞罗那城市中心", "lat": 41.3851, "lng": 2.1734},
  "20220712": {"name": "湾标瞭望台，悉尼", "lat": -33.8500, "lng": 151.0667},
  "20220713": {"name": "巨人堤道", "lat": 55.2408, "lng": -6.5116},
  "20220714": {"name": "比米尼岛中心点", "lat": 25.7272, "lng": -79.2886},
  "20220715": {"name": "阿罗内镇，意大利中心", "lat": 42.5833, "lng": 12.8167},
  "20220716": {"name": "知更鸟代表地(南卡罗来纳中心)", "lat": 33.8361, "lng": -81.1637},
  "20220717": {"name": "波浪谷，亚利桑那州", "lat": 36.9956, "lng": -112.0061},
  "20220718": {"name": "青海岛中心点", "lat": 34.4267, "lng": 131.2069},
  "20220719": {"name": "淑女岛中心点", "lat": 47.8717, "lng": 12.4261},
  "20220720": {"name": "月相地图代表点(中心点)", "lat": 0.0000, "lng": 0.0000},
  "20220721": {"name": "修道院公园，伯里圣埃德蒙兹", "lat": 52.2442, "lng": 0.7183},
  "20220722": {"name": "圣乔治海峡，黑山中心", "lat": 42.4856, "lng": 18.6881},
  "20220723": {"name": "红天蛾(代表地：多塞特郡中心)", "lat": 50.7167, "lng": -2.4333},
  "20220724": {"name": "双杰克湖，班夫", "lat": 51.2269, "lng": -115.5000},
  "20220725": {"name": "多尔巴达恩城堡", "lat": 53.1186, "lng": -4.1136},
  "20220726": {"name": "萨卢姆三角洲公园中心", "lat": 13.8333, "lng": -16.5000},
  "20220727": {"name": "玛甸沙勒纳巴泰墓", "lat": 26.8047, "lng": 37.9547},
  "20220728": {"name": "朗斯峰，落基山公园", "lat": 40.2547, "lng": -105.6158},
  "20220729": {"name": "塔多巴老虎保护区中心", "lat": 20.2000, "lng": 79.3333},
  "20220730": {"name": "米尔福德峡湾中心点", "lat": -44.6414, "lng": 167.8972},
  "20220731": {"name": "立陶宛夜光云(立陶宛地理中心)", "lat": 55.1694, "lng": 23.8813},
  "20220801": {"name": "夏威夷火山国家公园中心", "lat": 19.4194, "lng": -155.2878},
  "20220802": {"name": "希克曼桥，犹他州", "lat": 38.3000, "lng": -111.2333},
  "20220803": {"name": "赤颈鸊鷉分布中心(代表：勃兰登堡)", "lat": 52.4167, "lng": 13.0000},
  "20220804": {"name": "上海中心点(七夕鸟瞰)", "lat": 31.2304, "lng": 121.4737},
  "20220805": {"name": "爱丁堡市中心点", "lat": 55.9533, "lng": -3.1883},
  "20220806": {"name": "旧金山湾盐滩中心", "lat": 37.5500, "lng": -122.1000},
  "20220807": {"name": "西湖，杭州中心点", "lat": 30.2447, "lng": 120.1500},
  "20220808": {"name": "潘塔留岛，圣埃尔姆", "lat": 39.5786, "lng": 2.3483},
  "20220809": {"name": "洛斯马诺斯洞穴，阿根廷", "lat": -47.1556, "lng": -70.6556},
  "20220810": {"name": "约书亚树, 加州中心点", "lat": 33.8734, "lng": -115.9010},
  "20220811": {"name": "燕岳山中心点", "lat": 36.3533, "lng": 137.7558},
  "20220812": {"name": "安博塞利国家公园大象区", "lat": -2.6333, "lng": 37.2500},
  "20220813": {"name": "蒙塔尼翁湖，法国中心点", "lat": 43.0500, "lng": -0.5833},
  "20220814": {"name": "琥珀山国家公园中心", "lat": -12.6167, "lng": 49.1667},
  "20220815": {"name": "奇陶尔加尔堡中心点", "lat": 24.8879, "lng": 74.6451},
  "20220816": {"name": "新泽西州大白鲨过山车点", "lat": 38.9833, "lng": -74.8167},
  "20220817": {"name": "巴西大自然水族馆中心点", "lat": -21.1333, "lng": -56.5167},
  "20220818": {"name": "哥德堡群岛中心点", "lat": 57.6500, "lng": 11.6667},
  "20220819": {"name": "彭赞斯，英国中心点", "lat": 50.1189, "lng": -5.5372},
  "20220820": {"name": "穆涅略斯自然保护区中心", "lat": 43.0167, "lng": -6.6833},
  "20220821": {"name": "科斯塔达莫尔特中心点", "lat": 43.1333, "lng": -9.1833},
  "20220822": {"name": "穴小鸮栖息地(代表：佛罗里达中部)", "lat": 28.0000, "lng": -82.0000},
  "20220823": {"name": "芒通中心点", "lat": 43.7744, "lng": 7.4975},
  "20220824": {"name": "糖面包山中心点", "lat": -22.9486, "lng": -43.1558},
  "20220825": {"name": "北瀑布国家公园中心点", "lat": 48.7000, "lng": -121.3333},
  "20220826": {"name": "佩列沙茨半岛中心点", "lat": 42.9333, "lng": 17.5333},
  "20220827": {"name": "圣海伦斯山国家火山纪念区", "lat": 46.1912, "lng": -122.1944},
  "20220828": {"name": "弗莱福兰中心点", "lat": 52.5275, "lng": 5.5903},
  "20220829": {"name": "爱沙尼亚波罗的海中心", "lat": 58.0000, "lng": 24.0000},
  "20220830": {"name": "米利亚里诺自然公园中心", "lat": 43.7667, "lng": 10.3000},
  "20220831": {"name": "新爱尔兰岛中心点", "lat": -3.3333, "lng": 152.0000},
  "20220901": {"name": "维尔登野生动物通道中心点", "lat": 52.3333, "lng": 6.4500},
  "20220902": {"name": "克里特岛中心点海滩", "lat": 35.3333, "lng": 24.8000},
  "20220903": {"name": "吉隆坡石油双塔", "lat": 3.1578, "lng": 101.7119},
  "20220904": {"name": "阿兰博尔海滩中心点", "lat": 15.6833, "lng": 73.7000},
  "20220905": {"name": "北魁北克中心点", "lat": 55.0000, "lng": -70.0000},
  "20220906": {"name": "红松鼠中心地(欧洲北部)", "lat": 55.0000, "lng": 10.0000},
  "20220907": {"name": "怀特岛尼德尔斯中心点", "lat": 50.6625, "lng": -1.5897},
  "20220908": {"name": "都市阳伞，塞维利亚", "lat": 37.3931, "lng": -5.9917},
  "20220909": {"name": "伯利兹堡礁保护区中心", "lat": 17.3160, "lng": -87.5351},
  "20220910": {"name": "豫园，上海中心点", "lat": 31.2272, "lng": 121.4922},
  "20220911": {"name": "喀拉拉邦河流中心点", "lat": 10.0000, "lng": 76.5000},
  "20220912": {"name": "潘塔纳尔保护区中心(巨嘴鸟栖息地)", "lat": -18.0000, "lng": -56.5000},
  "20220913": {"name": "大沙丘国家公园中心点", "lat": 37.7331, "lng": -105.5125},
  "20220914": {"name": "纳瓦霍桥，亚利桑那州", "lat": 36.8331, "lng": -111.6367},
  "20220915": {"name": "罗兰豁口中心点", "lat": 42.6833, "lng": -0.0333},
  "20220916": {"name": "百内国家公园中心(美洲狮栖息地)", "lat": -51.0000, "lng": -73.0000},
  "20220917": {"name": "布莱克浦塔，英国", "lat": 53.8158, "lng": -3.0550},
  "20220918": {"name": "翡翠湖, 幽鹤国家公园", "lat": 51.4389, "lng": -116.5414},
  "20220919": {"name": "卡斯泰尔梅扎诺，意大利中心", "lat": 40.5289, "lng": 16.0461},
  "20220920": {"name": "锡特卡海峡中心点", "lat": 57.0500, "lng": -135.3333},
  "20220921": {"name": "赫努姆中心点，叙尔特岛", "lat": 54.7606, "lng": 8.2867},
  "20220922": {"name": "春角礁灯塔，缅因州", "lat": 43.6492, "lng": -70.2264},
  "20220923": {"name": "最后一美元公路，科罗拉多", "lat": 38.0000, "lng": -107.9667},
  "20220924": {"name": "阿卡迪亚国家公园中心点", "lat": 44.3333, "lng": -68.2733},
  "20220925": {"name": "亚马逊河中心点(巴西区)", "lat": -3.4653, "lng": -62.2159},
  "20220926": {"name": "苏西特纳河中心点", "lat": 61.4667, "lng": -150.5000},
  "20220927": {"name": "黄石公园上间歇泉盆地", "lat": 44.4600, "lng": -110.8300},
  "20220928": {"name": "福斯特廊桥，佛蒙特州", "lat": 44.4239, "lng": -72.4519},
  "20220929": {"name": "约翰斯顿峡谷，班夫", "lat": 51.2456, "lng": -115.8406},
  "20220930": {"name": "新湾(露脊鲸区), 阿根廷", "lat": -42.7500, "lng": -64.7500},
  "20221001": {"name": "蔚县中心点，河北", "lat": 39.8411, "lng": 114.5667},
  "20221002": {"name": "勃朗峰中心点", "lat": 45.8325, "lng": 6.8647},
  "20221003": {"name": "仙女谷，苏格兰", "lat": 57.5833, "lng": -6.3167},
  "20221004": {"name": "黄石日出中心点", "lat": 44.4280, "lng": -110.5885},
  "20221005": {"name": "里奥拉加托斯中心点", "lat": 21.6000, "lng": -88.1500},
  "20221006": {"name": "巴斯克海岸公园中心", "lat": 43.3000, "lng": -2.3167},
  "20221007": {"name": "温德米尔湖中心", "lat": 54.3736, "lng": -2.9372},
  "20221008": {"name": "佛得角中心点(玻璃章鱼海域)", "lat": 16.0000, "lng": -24.0000},
  "20221009": {"name": "楚科奇海中心点", "lat": 69.0000, "lng": -170.0000},
  "20221010": {"name": "瓦伦蒂诺大坝中心点", "lat": 45.7483, "lng": 10.6017},
  "20221011": {"name": "泛生墙藓分布区(代表：荷兰中心)", "lat": 52.1326, "lng": 5.2913},
  "20221012": {"name": "蒙茅斯海滩中心点", "lat": 50.7228, "lng": -2.9406},
  "20221013": {"name": "迪纳利国家公园中心", "lat": 63.1148, "lng": -151.1926},
  "20221014": {"name": "奥尔德萨国家公园中心", "lat": 42.6667, "lng": 0.0500},
  "20221015": {"name": "纳克什鲁斯塔姆，伊朗", "lat": 29.9889, "lng": 52.8753},
  "20221016": {"name": "克里斯蒂安王子之声，格陵兰", "lat": 60.1667, "lng": -43.8333},
  "20221017": {"name": "波希米亚-摩拉维亚高地中心点", "lat": 49.3333, "lng": 15.5000},
  "20221018": {"name": "新娘面纱瀑布，约塞米蒂", "lat": 37.7167, "lng": -119.6467},
  "20221019": {"name": "瓦特堡城堡中心点", "lat": 50.9664, "lng": 10.3061},
  "20221020": {"name": "塔拉曼卡旧港中心", "lat": 9.6583, "lng": -82.7533},
  "20221021": {"name": "落羽杉分布中心(佐治亚州)", "lat": 32.5000, "lng": -83.5000},
  "20221022": {"name": "漓江国家公园中心", "lat": 25.2345, "lng": 110.3015},
  "20221023": {"name": "瓦尔肯霍斯特保护区中心", "lat": 51.3500, "lng": 5.4833},
  "20221024": {"name": "玛利恩堡，德国中心点", "lat": 50.0167, "lng": 7.1833},
  "20221025": {"name": "博马尔佐花园中心点", "lat": 42.4917, "lng": 12.2472},
  "20221026": {"name": "巴尔干中央国家公园中心", "lat": 42.7500, "lng": 24.7500},
  "20221027": {"name": "叹息桥，威尼斯", "lat": 45.4340, "lng": 12.3408},
  "20221028": {"name": "洛桑中心点，瑞典", "lat": 46.5197, "lng": 6.6323},
  "20221029": {"name": "海洋天使分布点(大西洋北部)", "lat": 60.0000, "lng": -20.0000},
  "20221030": {"name": "哈德逊湾边缘中心点", "lat": 60.0000, "lng": -85.0000},
  "20221031": {"name": "韦奇伍德森林中心", "lat": 51.8167, "lng": -1.5333},
  "20221101": {"name": "神秘森林南瓜中心点", "lat": 50.0000, "lng": 10.0000},
  "20221102": {"name": "慕纳尔茶园中心", "lat": 10.0889, "lng": 77.0595},
  "20221103": {"name": "乞力马扎罗山中心", "lat": -3.0674, "lng": 37.3556},
  "20221104": {"name": "沛托湖，班夫国家公园中心", "lat": 51.7167, "lng": -116.5167},
  "20221105": {"name": "阿赫雷湖中心点", "lat": 56.2167, "lng": -4.3833},
  "20221106": {"name": "韦拉扎诺海峡大桥", "lat": 40.6067, "lng": -74.0447},
  "20221107": {"name": "庐山中心点", "lat": 29.5544, "lng": 115.9753},
  "20221108": {"name": "清迈中心点", "lat": 18.7883, "lng": 98.9853},
  "20221109": {"name": "萨塞克斯郡中心点", "lat": 50.9500, "lng": -0.1167},
  "20221110": {"name": "恶地国家公园中心", "lat": 43.7102, "lng": -102.4367},
  "20221111": {"name": "阿布山中心点", "lat": 24.5925, "lng": 72.7156},
  "20221112": {"name": "海恩斯中心点，阿拉斯加", "lat": 59.2331, "lng": -135.4472},
  "20221113": {"name": "伊萨尔河中心点", "lat": 47.7833, "lng": 11.5833},
  "20221114": {"name": "哈尔基岛中心", "lat": 36.2167, "lng": 27.6000},
  "20221115": {"name": "阿卡迪亚国家公园中心点", "lat": 44.3333, "lng": -68.2733},
  "20221116": {"name": "悬崖宫，梅萨维德公园", "lat": 37.1837, "lng": -108.4717},
  "20221117": {"name": "威拉米特国家森林中心点", "lat": 44.0000, "lng": -122.0000},
  "20221118": {"name": "菲斯皇宫中心", "lat": 34.0583, "lng": -4.9806},
  "20221119": {"name": "锡安国家公园中心", "lat": 37.2982, "lng": -113.0263},
  "20221120": {"name": "船底星云中心点(虚拟点)", "lat": 0.0000, "lng": 0.0000},
  "20221121": {"name": "伊索拉贝拉岛中心点", "lat": 45.8953, "lng": 8.5269},
  "20221122": {"name": "阿姆斯特丹供水沙丘保护区", "lat": 52.3333, "lng": 4.5333},
  "20221123": {"name": "向日葵(虚拟点)", "lat": 0.0000, "lng": 0.0000},
  "20221124": {"name": "坎彭万德山中心点", "lat": 47.7556, "lng": 12.3325},
  "20221125": {"name": "蒂雷纳村庄中心", "lat": 45.0542, "lng": 1.5831},
  "20221126": {"name": "康科迪亚神庙中心点", "lat": 37.2903, "lng": 13.5911},
  "20221127": {"name": "号角树叶中心点(墨西哥)", "lat": 19.4326, "lng": -99.1332},
  "20221128": {"name": "火星地图点(虚拟点)", "lat": 0.0000, "lng": 0.0000},
  "20221129": {"name": "瓦可达哈齐湿地中心点", "lat": 26.4789, "lng": -80.1458},
  "20221130": {"name": "罗维尼老城，克罗地亚", "lat": 45.0811, "lng": 13.6331},
  "20221201": {"name": "天堂湾，南极洲中心", "lat": -64.8500, "lng": -62.8667},
  "20221202": {"name": "特里卡基拉河中心", "lat": 60.3333, "lng": -153.0000},
  "20221203": {"name": "迈阿密海滩中心", "lat": 25.7906, "lng": -80.1300},
  "20221204": {"name": "安博塞利公园乞力马扎罗区", "lat": -2.6333, "lng": 37.2500},
  "20221205": {"name": "古瓦哈提中心点，印度", "lat": 26.1833, "lng": 91.7333},
  "20221206": {"name": "大沼泽国家公园中心", "lat": 25.2866, "lng": -80.8987},
  "20221207": {"name": "纠结溪瀑布中心", "lat": 52.3292, "lng": -117.2833},
  "20221208": {"name": "威斯特曼森林中心", "lat": 50.5667, "lng": -3.9833},
  "20221209": {"name": "多弗勒山国家公园中心", "lat": 62.3333, "lng": 9.5000},
  "20221210": {"name": "乌尤尼盐沼中心点", "lat": -20.1338, "lng": -67.4891},
  "20221211": {"name": "Roßstein山顶中心点", "lat": 47.6333, "lng": 11.6667},
  "20221212": {"name": "一品红(虚拟点)", "lat": 0.0000, "lng": 0.0000},
  "20221213": {"name": "哈尔施塔特中心点", "lat": 47.5622, "lng": 13.6492},
  "20221214": {"name": "大帕拉迪索国家公园中心点", "lat": 45.5167, "lng": 7.3000},
  "20221215": {"name": "博罗韦茨中心点", "lat": 42.2667, "lng": 23.6000},
  "20221216": {"name": "杜德萨加尔瀑布", "lat": 15.3131, "lng": 74.3144},
  "20221217": {"name": "冰川国家公园中心点", "lat": 48.7596, "lng": -113.7870},
  "20221218": {"name": "迈阿密南海滩中心点", "lat": 25.7744, "lng": -80.1303},
  "20221219": {"name": "北美冬青分布中心点(伊利诺伊)", "lat": 40.0000, "lng": -89.0000},
  "20221220": {"name": "维也纳美景宫中心", "lat": 48.1914, "lng": 16.3808},
  "20221221": {"name": "安特莫亚湖中心", "lat": 46.4667, "lng": 11.6500},
  "20221222": {"name": "安纳西中心点", "lat": 45.8992, "lng": 6.1292},
  "20221223": {"name": "巴布亚企鹅栖息地(代表点：南乔治亚)", "lat": -54.2500, "lng": -36.7500},
  "20221224": {"name": "特伦蒂诺-上阿迪杰大区中心点", "lat": 46.5000, "lng": 11.5000},
  "20221225": {"name": "惠斯勒小镇中心点", "lat": 50.1167, "lng": -122.9500},
  "20221226": {"name": "贝弗利·韦斯特伍德中心点", "lat": 53.8411, "lng": -0.4503},
  "20221227": {"name": "格林达维克蓝湖", "lat": 63.8804, "lng": -22.4495},
  "20221228": {"name": "马洛亚中心点", "lat": 46.4000, "lng": 9.7000},
  "20221229": {"name": "斯托尔石山中心点", "lat": 57.5072, "lng": -6.1744},
  "20221230": {"name": "埃及白沙漠中心点", "lat": 27.2411, "lng": 28.1833},
  "20221231": {"name": "2023跨年虚拟点(代表：基里巴斯)", "lat": 1.9871, "lng": -157.4769}
}